<?xml version="1.0" encoding="UTF-8"?><simulationstate status="running">
<state cell-size="0.001" max-lat="52.3783" max-lon="9.7686" min-lat="52.3526" min-lon="9.7051" number-of-steps="null" proximity="2.0E-4" simulation="City2015_AB_2015-tournament-sim2of3" step="302">
<facilities>
<facility lat="52.3619" lon="9.7299" name="shop1" stock="3x tool2 @ 139&#10;614x base1 @ 5&#10;147x base2 @ 17&#10;106x base3 @ 241&#10;66x tool1 @ 51&#10;" type="SH"/>
<facility lat="52.3589" lon="9.7499" name="workshop1" price="300" type="WS"/>
<facility capacity="0/10000" lat="52.3731" lon="9.7462" name="storage1" price="3" stored="Team A:&#10;Team B:&#10;" type="ST"/>
<facility lat="52.3781" lon="9.706" name="workshop2" price="300" type="WS"/>
<facility lat="52.3664" lon="9.7102" name="dump1" price="300" type="DU"/>
<facility concurrent="2" fPrice="1" lat="52.3729" lon="9.7235" name="charging1" q="0" rate="80" type="CH"/>
</facilities>
<agents>
<agent batteryCapacity="5000" charge="5000" lastAction="noAction" lastActionParam="" lastActionResult="" lat="52.3764" load="0" loadCapacity="550" lon="9.7408" name="a1" products="" role="Car" team="A"/>
<agent batteryCapacity="2500" charge="2500" lastAction="noAction" lastActionParam="" lastActionResult="" lat="52.3739" load="0" loadCapacity="1000" lon="9.7186" name="a2" products="" role="Drone" team="A"/>
<agent batteryCapacity="3500" charge="3500" lastAction="noAction" lastActionParam="" lastActionResult="" lat="52.3584" load="0" loadCapacity="3000" lon="9.7233" name="a3" products="" role="Motorcycle" team="A"/>
<agent batteryCapacity="10000" charge="10000" lastAction="noAction" lastActionParam="" lastActionResult="" lat="52.356" load="0" loadCapacity="30000" lon="9.7447" name="a4" products="" role="Truck" team="A"/>
<agent batteryCapacity="5000" charge="4870" lastAction="skip" lastActionParam="" lastActionResult="successful" lat="52.3781" load="400" loadCapacity="550" lon="9.706" name="b1" products="4x base2&#10; " role="Car" team="B"/>
<agent batteryCapacity="2500" charge="1910" lastAction="skip" lastActionParam="" lastActionResult="successful" lat="52.3731" load="120" loadCapacity="1000" lon="9.7462" name="b2" products="12x base1&#10; " role="Drone" team="B"/>
<agent batteryCapacity="3500" charge="3500" lastAction="skip" lastActionParam="" lastActionResult="successful" lat="52.3729" load="250" loadCapacity="3000" lon="9.7235" name="b3" products="25x base1&#10; " role="Motorcycle" team="B"/>
<agent batteryCapacity="10000" charge="10000" lastAction="skip" lastActionParam="" lastActionResult="successful" lat="52.3729" load="0" loadCapacity="30000" lon="9.7235" name="b4" products="" role="Truck" team="B"/>
</agents>
<jobs>
<job id="job_id8386190909973115805" itemsDel="" itemsReq="3x material2&#10; 3x material1&#10; " poster="system" reward="0" status="4"/>
<job id="job_id1497249742850149405" itemsDel="" itemsReq="2x material3&#10; " poster="system" reward="10000" status="2"/>
<job id="job_id5438225366999916142" itemsDel="" itemsReq="3x material2&#10; 3x material1&#10; " poster="system" reward="0" status="4"/>
</jobs>
<teams>
<team jobs="" money="0" name="A"/>
<team jobs="" money="-2333" name="B"/>
</teams>
</state>
</simulationstate>
